{"type":"FeatureCollection", "features": [
{"type":"Feature","geometry":{"type":"Point","coordinates":[106.75701500000008,-6.515458899999942,0,-1.7976931348623157e+308]},"properties":{"OBJECTID":1,"Nama":"Sekolah Dasar Negeri Kemang 01","Alamat":"Jl. Raya Kemang No.58, Kemang · (0251) 7538830","Full_Addre":"Sekolah Dasar Negeri Kemang 01 Jl. Raya Kemang No.58, Kemang · (0251) 7538830","Latitude":-6.5154589,"Longitude":106.757015}},
{"type":"Feature","geometry":{"type":"Point","coordinates":[106.75694340000007,-6.49937639999996,0,-1.7976931348623157e+308]},"properties":{"OBJECTID":2,"Nama":"SMP, SMK Wiyata Kharisma / SMK Budiasih Pratama","Alamat":"Jl. Raya Kemang Parung Bogor No.627","Full_Addre":"SMP, SMK Wiyata Kharisma / SMK Budiasih Pratama Jl. Raya Kemang Parung Bogor No.627","Latitude":-6.4993764,"Longitude":106.7569434}},
{"type":"Feature","geometry":{"type":"Point","coordinates":[106.75776080000009,-6.503901499999927,0,-1.7976931348623157e+308]},"properties":{"OBJECTID":3,"Nama":"MIS AL FITRIYAH KEMANG","Alamat":"Jl. Raya Kemang Parung Bogor No.601 · 0898-9433-654","Full_Addre":"MIS AL FITRIYAH KEMANG Jl. Raya Kemang Parung Bogor No.601 · 0898-9433-654","Latitude":-6.5039015,"Longitude":106.7577608}},
{"type":"Feature","geometry":{"type":"Point","coordinates":[106.76412550000003,-6.525896199999977,0,-1.7976931348623157e+308]},"properties":{"OBJECTID":4,"Nama":"SMP Granada","Alamat":"Jl. Baru Kemang No.2 · (0251) 7538399","Full_Addre":"SMP Granada Jl. Baru Kemang No.2 · (0251) 7538399","Latitude":-6.5258962,"Longitude":106.7641255}},
{"type":"Feature","geometry":{"type":"Point","coordinates":[106.74995740000008,-6.504013499999928,0,-1.7976931348623157e+308]},"properties":{"OBJECTID":5,"Nama":"SMP NEGERI 2 KEMANG","Alamat":"Jl. Kemang Kiara No.rt01/03 · (0251) 7541636","Full_Addre":"SMP NEGERI 2 KEMANG Jl. Kemang Kiara No.rt01/03 · (0251) 7541636","Latitude":-6.5040135,"Longitude":106.7499574}},
{"type":"Feature","geometry":{"type":"Point","coordinates":[106.71370020000006,-6.48677129999993,0,-1.7976931348623157e+308]},"properties":{"OBJECTID":6,"Nama":"SMPN 1 KEMANG","Alamat":"GP77+7FW","Full_Addre":"SMPN 1 KEMANG GP77+7FW","Latitude":-6.4867713,"Longitude":106.7137002}},
{"type":"Feature","geometry":{"type":"Point","coordinates":[106.69895110000004,-6.472917999999936,0,-1.7976931348623157e+308]},"properties":{"OBJECTID":7,"Nama":"SMP It Darul Kholidin Kemang","Alamat":"Jl. Kampung Sasak No.30 · (0251) 8610660","Full_Addre":"SMP It Darul Kholidin Kemang Jl. Kampung Sasak No.30 · (0251) 8610660","Latitude":-6.472918,"Longitude":106.6989511}},
{"type":"Feature","geometry":{"type":"Point","coordinates":[106.75001930000008,-6.505876599999965,0,-1.7976931348623157e+308]},"properties":{"OBJECTID":8,"Nama":"SDN Kemang 2","Alamat":"FQV2+J2R","Full_Addre":"SDN Kemang 2 FQV2+J2R","Latitude":-6.5058766,"Longitude":106.7500193}},
{"type":"Feature","geometry":{"type":"Point","coordinates":[106.75767940000009,-6.49604869999996,0,-1.7976931348623157e+308]},"properties":{"OBJECTID":9,"Nama":"TK GRANADA","Alamat":"Jl. Baru Kemang No.02 · (0251) 7538359","Full_Addre":"TK GRANADA Jl. Baru Kemang No.02 · (0251) 7538359","Latitude":-6.4960487,"Longitude":106.7576794}},
{"type":"Feature","geometry":{"type":"Point","coordinates":[106.75656850000007,-6.4979891999999495,0,-1.7976931348623157e+308]},"properties":{"OBJECTID":10,"Nama":"PAUD, TK, SD Permata","Alamat":"Jl. Baru Kemang No.1 · (0251) 7531744","Full_Addre":"PAUD, TK, SD Permata Jl. Baru Kemang No.1 · (0251) 7531744","Latitude":-6.4979892,"Longitude":106.7565685}},
{"type":"Feature","geometry":{"type":"Point","coordinates":[106.74812450000007,-6.500540399999977,0,-1.7976931348623157e+308]},"properties":{"OBJECTID":11,"Nama":"SMK Negeri 1 Kemang Bogor","Alamat":"Jl. Kemang Kiara · (0251) 7594566","Full_Addre":"SMK Negeri 1 Kemang Bogor Jl. Kemang Kiara · (0251) 7594566","Latitude":-6.5005404,"Longitude":106.7481245}},
{"type":"Feature","geometry":{"type":"Point","coordinates":[106.73909800000007,-6.500901099999965,0,-1.7976931348623157e+308]},"properties":{"OBJECTID":12,"Nama":"Seatcover(sarungjok)","Alamat":"Jl. Raya Kemang Parung Bogor Kp pulo indah, RT.01/rw02 · 0895-6124-47347","Full_Addre":"Seatcover(sarungjok) Jl. Raya Kemang Parung Bogor Kp pulo indah, RT.01/rw02 · 0895-6124-47347","Latitude":-6.5009011,"Longitude":106.739098}},
{"type":"Feature","geometry":{"type":"Point","coordinates":[106.72897260000008,-6.475970299999972,0,-1.7976931348623157e+308]},"properties":{"OBJECTID":13,"Nama":"SMP PGRI 1, Kemang Parung","Alamat":"Jl. Mad Nur No.9","Full_Addre":"SMP PGRI 1, Kemang Parung Jl. Mad Nur No.9","Latitude":-6.4759703,"Longitude":106.7289726}},
{"type":"Feature","geometry":{"type":"Point","coordinates":[106.72971210000009,-6.48945759999998,0,-1.7976931348623157e+308]},"properties":{"OBJECTID":14,"Nama":"SDN Jampang Hambulu","Alamat":"Kabupaten Bogor, Jawa Barat","Full_Addre":"SDN Jampang Hambulu Kabupaten Bogor, Jawa Barat","Latitude":-6.4894576,"Longitude":106.7297121}},
{"type":"Feature","geometry":{"type":"Point","coordinates":[106.69898140000004,-6.479754599999978,0,-1.7976931348623157e+308]},"properties":{"OBJECTID":15,"Nama":"Sekolah Qurratu'ayun","Alamat":"Jl. Ganesha No.18-20","Full_Addre":"Sekolah Qurratu'ayun Jl. Ganesha No.18-20","Latitude":-6.4797546,"Longitude":106.6989814}},
{"type":"Feature","geometry":{"type":"Point","coordinates":[106.73013590000005,-6.477025899999944,0,-1.7976931348623157e+308]},"properties":{"OBJECTID":16,"Nama":"SMP Permata,Kemang,Bogor","Alamat":"GQ34+QQX","Full_Addre":"SMP Permata,Kemang,Bogor GQ34+QQX","Latitude":-6.4770259,"Longitude":106.7301359}},
{"type":"Feature","geometry":{"type":"Point","coordinates":[106.75997780000006,-6.520848899999976,0,-1.7976931348623157e+308]},"properties":{"OBJECTID":17,"Nama":"SMP-SMK Wiyata Mandala Bogor","Alamat":"Jl Raya Salabenda-Kemang KM 49-50, Bogor · (0251) 7593212","Full_Addre":"SMP-SMK Wiyata Mandala Bogor Jl Raya Salabenda-Kemang KM 49-50, Bogor · (0251) 7593212","Latitude":-6.5208489,"Longitude":106.7599778}},
{"type":"Feature","geometry":{"type":"Point","coordinates":[106.72157090000007,-6.486180599999955,0,-1.7976931348623157e+308]},"properties":{"OBJECTID":18,"Nama":"SDN Tegal 01","Alamat":"Jl. Parung Hijau Desa Tegal Jampang Hambulu No.20","Full_Addre":"SDN Tegal 01 Jl. Parung Hijau Desa Tegal Jampang Hambulu No.20","Latitude":-6.4861806,"Longitude":106.7215709}},
{"type":"Feature","geometry":{"type":"Point","coordinates":[106.71512440000004,-6.485185599999966,0,-1.7976931348623157e+308]},"properties":{"OBJECTID":19,"Nama":"Smks Citra Bangsa","Alamat":"Jl. Parung Hijau Desa Tegal Jampang Hambulu No.24","Full_Addre":"Smks Citra Bangsa Jl. Parung Hijau Desa Tegal Jampang Hambulu No.24","Latitude":-6.4851856,"Longitude":106.7151244}},
{"type":"Feature","geometry":{"type":"Point","coordinates":[106.75375780000007,-6.511603199999968,0,-1.7976931348623157e+308]},"properties":{"OBJECTID":20,"Nama":"MIS Raudlatul Islamiyah","Alamat":"Jl. Kemang Kiara No 45 RT 05 RW 05 Kecamatan Kemang · 0857-7035-5429","Full_Addre":"MIS Raudlatul Islamiyah Jl. Kemang Kiara No 45 RT 05 RW 05 Kecamatan Kemang · 0857-7035-5429","Latitude":-6.5116032,"Longitude":106.7537578}},
{"type":"Feature","geometry":{"type":"Point","coordinates":[106.76146210000007,-6.524516799999958,0,-1.7976931348623157e+308]},"properties":{"OBJECTID":21,"Nama":"SMP Taruna Terpadu","Alamat":"Jalan Raya Semplak Salabenda, Parakan Jaya, Kemang · (0251) 7542504","Full_Addre":"SMP Taruna Terpadu Jalan Raya Semplak Salabenda, Parakan Jaya, Kemang · (0251) 7542504","Latitude":-6.5245168,"Longitude":106.7614621}},
{"type":"Feature","geometry":{"type":"Point","coordinates":[106.76097410000006,-6.539693399999976,0,-1.7976931348623157e+308]},"properties":{"OBJECTID":22,"Nama":"SD Angkasa 01","Alamat":"Lanud Atang Sandjaya, Jl. Raya Semplak","Full_Addre":"SD Angkasa 01 Lanud Atang Sandjaya, Jl. Raya Semplak","Latitude":-6.5396934,"Longitude":106.7609741}},
{"type":"Feature","geometry":{"type":"Point","coordinates":[106.74847720000008,-6.5030223999999635,0,-1.7976931348623157e+308]},"properties":{"OBJECTID":23,"Nama":"TKIT. Al-Fatih","Alamat":"Jln. Limus Manggung RT 5/2 No.62 · 0895-0572-5656","Full_Addre":"TKIT. Al-Fatih Jln. Limus Manggung RT 5/2 No.62 · 0895-0572-5656","Latitude":-6.5030224,"Longitude":106.7484772}},
{"type":"Feature","geometry":{"type":"Point","coordinates":[106.73013120000007,-6.472774999999956,0,-1.7976931348623157e+308]},"properties":{"OBJECTID":24,"Nama":"SD Pengembangan Insani","Alamat":"Jl. Raya Parung No.42","Full_Addre":"SD Pengembangan Insani Jl. Raya Parung No.42","Latitude":-6.472775,"Longitude":106.7301312}},
{"type":"Feature","geometry":{"type":"Point","coordinates":[106.76023830000008,-6.523330199999975,0,-1.7976931348623157e+308]},"properties":{"OBJECTID":25,"Nama":"SMA TARUNA TERPADU BOASH","Alamat":"Kabupaten Bogor, Jawa Barat","Full_Addre":"SMA TARUNA TERPADU BOASH Kabupaten Bogor, Jawa Barat","Latitude":-6.5233302,"Longitude":106.7602383}},
{"type":"Feature","geometry":{"type":"Point","coordinates":[106.71922700000005,-6.5020339999999806,0,-1.7976931348623157e+308]},"properties":{"OBJECTID":26,"Nama":"Yayasan Hilal Bogor Cab.Kemang","Alamat":"FPX9+5MQ","Full_Addre":"Yayasan Hilal Bogor Cab.Kemang FPX9+5MQ","Latitude":-6.502034,"Longitude":106.719227}},
{"type":"Feature","geometry":{"type":"Point","coordinates":[106.73118690000007,-6.490426199999945,0,-1.7976931348623157e+308]},"properties":{"OBJECTID":27,"Nama":"SMK Al-AqSyar Islamic School","Alamat":"Jl. Parung Hijau I No.18, Hambulu, RT.01/RW.07 · (0251) 8411240","Full_Addre":"SMK Al-AqSyar Islamic School Jl. Parung Hijau I No.18, Hambulu, RT.01/RW.07 · (0251) 8411240","Latitude":-6.4904262,"Longitude":106.7311869}},
{"type":"Feature","geometry":{"type":"Point","coordinates":[106.72185410000009,-6.499920199999963,0,-1.7976931348623157e+308]},"properties":{"OBJECTID":28,"Nama":"SDN PABUARAN 03","Alamat":"GP2C+2PQ","Full_Addre":"SDN PABUARAN 03 GP2C+2PQ","Latitude":-6.4999202,"Longitude":106.7218541}},
{"type":"Feature","geometry":{"type":"Point","coordinates":[106.72962990000008,-6.487810199999956,0,-1.7976931348623157e+308]},"properties":{"OBJECTID":29,"Nama":"SMP Chandra Buana Bogor","Alamat":"GP6H+VVC","Full_Addre":"SMP Chandra Buana Bogor GP6H+VVC","Latitude":-6.4878102,"Longitude":106.7296299}},
{"type":"Feature","geometry":{"type":"Point","coordinates":[106.74847360000007,-6.531414599999948,0,-1.7976931348623157e+308]},"properties":{"OBJECTID":30,"Nama":"SD Negeri Bojong 02","Alamat":"Jl. Raya Bojong No.02 · (0251) 7534703","Full_Addre":"SD Negeri Bojong 02 Jl. Raya Bojong No.02 · (0251) 7534703","Latitude":-6.5314146,"Longitude":106.7484736}},
{"type":"Feature","geometry":{"type":"Point","coordinates":[106.70317970000008,-6.482208699999944,0,-1.7976931348623157e+308]},"properties":{"OBJECTID":31,"Nama":"SMP Marsudirini Bogor","Alamat":"GP93+477, Perum, Jl. Telaga Kahuripan Jl. Ganesha · (0251) 8602435","Full_Addre":"SMP Marsudirini Bogor GP93+477, Perum, Jl. Telaga Kahuripan Jl. Ganesha · (0251) 8602435","Latitude":-6.4822087,"Longitude":106.7031797}},
{"type":"Feature","geometry":{"type":"Point","coordinates":[106.75355410000009,-6.508968799999934,0,-1.7976931348623157e+308]},"properties":{"OBJECTID":32,"Nama":"SDN KEMANGKIARA","Alamat":"Jl. Kemang Kiara No.8 · (0251) 7542875","Full_Addre":"SDN KEMANGKIARA Jl. Kemang Kiara No.8 · (0251) 7542875","Latitude":-6.5089688,"Longitude":106.7535541}},
{"type":"Feature","geometry":{"type":"Point","coordinates":[106.75400410000009,-6.50771919999994,0,-1.7976931348623157e+308]},"properties":{"OBJECTID":33,"Nama":"TK/RA Hidayatul Mubtadiien","Alamat":"FQR3+WJ6, Jl. Kiara Amaliah","Full_Addre":"TK/RA Hidayatul Mubtadiien FQR3+WJ6, Jl. Kiara Amaliah","Latitude":-6.5077192,"Longitude":106.7540041}},
{"type":"Feature","geometry":{"type":"Point","coordinates":[106.75475190000009,-6.500281899999948,0,-1.7976931348623157e+308]},"properties":{"OBJECTID":34,"Nama":"Pesantren modern AL MULTAZAM KEMANG","Alamat":"FQX3+VWJ, Jl. Kirai · 0856-8853-143","Full_Addre":"Pesantren modern AL MULTAZAM KEMANG FQX3+VWJ, Jl. Kirai · 0856-8853-143","Latitude":-6.5002819,"Longitude":106.7547519}},
{"type":"Feature","geometry":{"type":"Point","coordinates":[106.74251780000009,-6.501583499999981,0,-1.7976931348623157e+308]},"properties":{"OBJECTID":35,"Nama":"Pesantren Ruhama Kemang","Alamat":"FPXV+926, Jl. Kemang Kiara · 0811-1103-495","Full_Addre":"Pesantren Ruhama Kemang FPXV+926, Jl. Kemang Kiara · 0811-1103-495","Latitude":-6.5015835,"Longitude":106.7425178}},
{"type":"Feature","geometry":{"type":"Point","coordinates":[106.72024050000005,-6.47333169999996,0,-1.7976931348623157e+308]},"properties":{"OBJECTID":36,"Nama":"SDN Dewi Sartika","Alamat":"Jl. Mad Nur No.3, RW.8","Full_Addre":"SDN Dewi Sartika Jl. Mad Nur No.3, RW.8","Latitude":-6.4733317,"Longitude":106.7202405}},
{"type":"Feature","geometry":{"type":"Point","coordinates":[106.72947240000008,-6.487675399999944,0,-1.7976931348623157e+308]},"properties":{"OBJECTID":37,"Nama":"Tk nuriadeen cendekia","Alamat":"Kabupaten Bogor, Jawa Barat · 0812-8006-9643","Full_Addre":"Tk nuriadeen cendekia Kabupaten Bogor, Jawa Barat · 0812-8006-9643","Latitude":-6.4876754,"Longitude":106.7294724}},
{"type":"Feature","geometry":{"type":"Point","coordinates":[106.70251310000003,-6.475956499999938,0,-1.7976931348623157e+308]},"properties":{"OBJECTID":38,"Nama":"Madania School","Alamat":"Telaga Kahuripan, Bogor · (0251) 8602777","Full_Addre":"Madania School Telaga Kahuripan, Bogor · (0251) 8602777","Latitude":-6.4759565,"Longitude":106.7025131}},
{"type":"Feature","geometry":{"type":"Point","coordinates":[106.70095930000008,-6.4891567999999324,0,-1.7976931348623157e+308]},"properties":{"OBJECTID":39,"Nama":"SMA Marsudirini Bogor","Alamat":"Jalan Raya Parung Jl. Perumahan Telaga Kahuripan No.Km 47 · 0821-1331-2421","Full_Addre":"SMA Marsudirini Bogor Jalan Raya Parung Jl. Perumahan Telaga Kahuripan No.Km 47 · 0821-1331-2421","Latitude":-6.4891568,"Longitude":106.7009593}},
{"type":"Feature","geometry":{"type":"Point","coordinates":[106.73085990000004,-6.477659599999981,0,-1.7976931348623157e+308]},"properties":{"OBJECTID":40,"Nama":"Paud Al Assrye","Alamat":"Jl. Jampang No.66","Full_Addre":"Paud Al Assrye Jl. Jampang No.66","Latitude":-6.4776596,"Longitude":106.7308599}},
{"type":"Feature","geometry":{"type":"Point","coordinates":[106.72157090000007,-6.486180599999955,0,-1.7976931348623157e+308]},"properties":{"OBJECTID":41,"Nama":"SDN Tegal 03","Alamat":"Jl. Parung Hijau Desa Tegal Jampang Hambulu No.20","Full_Addre":"SDN Tegal 03 Jl. Parung Hijau Desa Tegal Jampang Hambulu No.20","Latitude":-6.4861806,"Longitude":106.7215709}},
{"type":"Feature","geometry":{"type":"Point","coordinates":[106.72523680000006,-6.47930139999994,0,-1.7976931348623157e+308]},"properties":{"OBJECTID":42,"Nama":"SDN Jampang 01","Alamat":"GPCG+73H","Full_Addre":"SDN Jampang 01 GPCG+73H","Latitude":-6.4793014,"Longitude":106.7252368}},
{"type":"Feature","geometry":{"type":"Point","coordinates":[106.71978970000004,-6.47306889999993,0,-1.7976931348623157e+308]},"properties":{"OBJECTID":43,"Nama":"SDN Jampang 03","Alamat":"Jl. Mad Nur No.9 · (0251) 619867","Full_Addre":"SDN Jampang 03 Jl. Mad Nur No.9 · (0251) 619867","Latitude":-6.4730689,"Longitude":106.7197897}},
{"type":"Feature","geometry":{"type":"Point","coordinates":[106.71397730000007,-6.494289399999957,0,-1.7976931348623157e+308]},"properties":{"OBJECTID":44,"Nama":"SDN Tegal 04","Alamat":"GP47+7HQ","Full_Addre":"SDN Tegal 04 GP47+7HQ","Latitude":-6.4942894,"Longitude":106.7139773}},
{"type":"Feature","geometry":{"type":"Point","coordinates":[106.74824720000004,-6.520845299999962,0,-1.7976931348623157e+308]},"properties":{"OBJECTID":45,"Nama":"SD Negeri Bojong 04","Alamat":"FPHX+M79, Jl. Kp. Bojong Hilir","Full_Addre":"SD Negeri Bojong 04 FPHX+M79, Jl. Kp. Bojong Hilir","Latitude":-6.5208453,"Longitude":106.7482472}},
{"type":"Feature","geometry":{"type":"Point","coordinates":[106.73920970000006,-6.490099599999951,0,-1.7976931348623157e+308]},"properties":{"OBJECTID":46,"Nama":"SD Negeri Pondok Udik","Alamat":"Jl. Raya Bogor-Parung No.32","Full_Addre":"SD Negeri Pondok Udik Jl. Raya Bogor-Parung No.32","Latitude":-6.4900996,"Longitude":106.7392097}},
{"type":"Feature","geometry":{"type":"Point","coordinates":[106.72982230000008,-6.489707599999974,0,-1.7976931348623157e+308]},"properties":{"OBJECTID":47,"Nama":"SMP SMK NUSANTARA MANDIRI","Alamat":"Jl. Parung Hijau Desa Tegal Jampang Hambulu No.2 · (0251) 8613929","Full_Addre":"SMP SMK NUSANTARA MANDIRI Jl. Parung Hijau Desa Tegal Jampang Hambulu No.2 · (0251) 8613929","Latitude":-6.4897076,"Longitude":106.7298223}},
{"type":"Feature","geometry":{"type":"Point","coordinates":[106.72806250000008,-6.475812499999961,0,-1.7976931348623157e+308]},"properties":{"OBJECTID":48,"Nama":"Muhammadiyah Boarding School (MBS) Ki Bagus Hadikusumo","Alamat":"Kabupaten Bogor, Jawa Barat · (0251) 8617602","Full_Addre":"Muhammadiyah Boarding School (MBS) Ki Bagus Hadikusumo Kabupaten Bogor, Jawa Barat · (0251) 8617602","Latitude":-6.4758125,"Longitude":106.7280625}},
{"type":"Feature","geometry":{"type":"Point","coordinates":[106.74837390000005,-6.531397999999967,0,-1.7976931348623157e+308]},"properties":{"OBJECTID":49,"Nama":"PAUD BINA UMAT","Alamat":"Jl. Raya Bojong No.02","Full_Addre":"PAUD BINA UMAT Jl. Raya Bojong No.02","Latitude":-6.531398,"Longitude":106.7483739}},
{"type":"Feature","geometry":{"type":"Point","coordinates":[106.74303360000005,-6.502602999999965,0,-1.7976931348623157e+308]},"properties":{"OBJECTID":50,"Nama":"MAHAD IMAM HAFSH","Alamat":"Gg. Al-Fitroh Jl. Kemang Kiara · (0251) 7598219","Full_Addre":"MAHAD IMAM HAFSH Gg. Al-Fitroh Jl. Kemang Kiara · (0251) 7598219","Latitude":-6.502603,"Longitude":106.7430336}},
{"type":"Feature","geometry":{"type":"Point","coordinates":[106.74847200000005,-6.494073299999968,0,-1.7976931348623157e+308]},"properties":{"OBJECTID":51,"Nama":"Smk Gunadarma Jaya Bogor","Alamat":"Jl. PWRI","Full_Addre":"Smk Gunadarma Jaya Bogor Jl. PWRI","Latitude":-6.4940733,"Longitude":106.748472}},
{"type":"Feature","geometry":{"type":"Point","coordinates":[106.71263820000007,-6.476567599999953,0,-1.7976931348623157e+308]},"properties":{"OBJECTID":52,"Nama":"Sekolah Alam YPGB Kahuripan","Alamat":"Lembah Padi Utara, Rumah Teknik, Jl. Telaga Kahuripan · 0896-3604-3054","Full_Addre":"Sekolah Alam YPGB Kahuripan Lembah Padi Utara, Rumah Teknik, Jl. Telaga Kahuripan · 0896-3604-3054","Latitude":-6.4765676,"Longitude":106.7126382}},
{"type":"Feature","geometry":{"type":"Point","coordinates":[106.74588000000006,-6.501346999999953,0,-1.7976931348623157e+308]},"properties":{"OBJECTID":53,"Nama":"Pondok Pesantren Adnan Zaelani Alhasan","Alamat":"jl Gg. Kangkung","Full_Addre":"Pondok Pesantren Adnan Zaelani Alhasan jl Gg. Kangkung","Latitude":-6.501347,"Longitude":106.74588}},
{"type":"Feature","geometry":{"type":"Point","coordinates":[106.74910700000004,-6.531033799999932,0,-1.7976931348623157e+308]},"properties":{"OBJECTID":54,"Nama":"SDN Bojong 2","Alamat":"FP9X+HJQ","Full_Addre":"SDN Bojong 2 FP9X+HJQ","Latitude":-6.5310338,"Longitude":106.749107}},
{"type":"Feature","geometry":{"type":"Point","coordinates":[106.75976000000009,-6.521109999999965,0,-1.7976931348623157e+308]},"properties":{"OBJECTID":55,"Nama":"SMK Wiyata Kharisma","Alamat":"FQH5+HW2","Full_Addre":"SMK Wiyata Kharisma FQH5+HW2","Latitude":-6.52111,"Longitude":106.75976}},
{"type":"Feature","geometry":{"type":"Point","coordinates":[106.73150510000005,-6.48128719999994,0,-1.7976931348623157e+308]},"properties":{"OBJECTID":56,"Nama":"SDN Jampang 5","Alamat":"Jalan Raya Parung Bogor No. 3, RT. 02/02, Desa Jampang, Kemang · 0816-1183-822","Full_Addre":"SDN Jampang 5 Jalan Raya Parung Bogor No. 3, RT. 02/02, Desa Jampang, Kemang · 0816-1183-822","Latitude":-6.4812872,"Longitude":106.7315051}},
{"type":"Feature","geometry":{"type":"Point","coordinates":[106.74456720000006,-6.520071299999927,0,-1.7976931348623157e+308]},"properties":{"OBJECTID":57,"Nama":"Rumah","Alamat":"Kp. Bojong Hilir RT.02 RW.10. 16310 · 0823-4697-9670","Full_Addre":"Rumah Kp. Bojong Hilir RT.02 RW.10. 16310 · 0823-4697-9670","Latitude":-6.5200713,"Longitude":106.7445672}},
{"type":"Feature","geometry":{"type":"Point","coordinates":[106.73099670000005,-6.4884651999999505,0,-1.7976931348623157e+308]},"properties":{"OBJECTID":58,"Nama":"PPMNU","Alamat":"GP6J+J95, Jl. Parung Hijau Desa Tegal Jampang Hambulu No.2","Full_Addre":"PPMNU GP6J+J95, Jl. Parung Hijau Desa Tegal Jampang Hambulu No.2","Latitude":-6.4884652,"Longitude":106.7309967}},
{"type":"Feature","geometry":{"type":"Point","coordinates":[106.73140040000004,-6.501747299999977,0,-1.7976931348623157e+308]},"properties":{"OBJECTID":59,"Nama":"Pondok Pesantren Tahfidz Quran Al Hikmah","Alamat":"Pesantren Tahfidz Quran Al Hikmah, Kampung Kramat, RT.01/RW.04","Full_Addre":"Pondok Pesantren Tahfidz Quran Al Hikmah Pesantren Tahfidz Quran Al Hikmah, Kampung Kramat, RT.01/RW.04","Latitude":-6.5017473,"Longitude":106.7314004}},
{"type":"Feature","geometry":{"type":"Point","coordinates":[106.71423630000004,-6.496980699999938,0,-1.7976931348623157e+308]},"properties":{"OBJECTID":60,"Nama":"FATIHATUL QUR'AN EDUCATION CENTER","Alamat":"Kabupaten Bogor, Jawa Barat · (0251) 8432999","Full_Addre":"FATIHATUL QUR'AN EDUCATION CENTER Kabupaten Bogor, Jawa Barat · (0251) 8432999","Latitude":-6.4969807,"Longitude":106.7142363}},
{"type":"Feature","geometry":{"type":"Point","coordinates":[106.76009790000006,-6.52425889999995,0,-1.7976931348623157e+308]},"properties":{"OBJECTID":61,"Nama":"SMK Taruna Terpadu 2","Alamat":"Jl. Salabenda Raya · 0857-1466-6778","Full_Addre":"SMK Taruna Terpadu 2 Jl. Salabenda Raya · 0857-1466-6778","Latitude":-6.5242589,"Longitude":106.7600979}},
{"type":"Feature","geometry":{"type":"Point","coordinates":[106.71512440000004,-6.485185599999966,0,-1.7976931348623157e+308]},"properties":{"OBJECTID":62,"Nama":"Sekolah Tinggi Ilmu Administrasi Menara Siswa","Alamat":"Jl. Parung Hijau Desa Tegal Jampang Hambulu No.24","Full_Addre":"Sekolah Tinggi Ilmu Administrasi Menara Siswa Jl. Parung Hijau Desa Tegal Jampang Hambulu No.24","Latitude":-6.4851856,"Longitude":106.7151244}},
{"type":"Feature","geometry":{"type":"Point","coordinates":[106.74165780000004,-6.497297699999933,0,-1.7976931348623157e+308]},"properties":{"OBJECTID":63,"Nama":"STIA MENARA SISWA","Alamat":"Unnamed Road, 16310 · (0251) 8616927","Full_Addre":"STIA MENARA SISWA Unnamed Road, 16310 · (0251) 8616927","Latitude":-6.4972977,"Longitude":106.7416578}},
{"type":"Feature","geometry":{"type":"Point","coordinates":[106.75934760000007,-6.523736999999926,0,-1.7976931348623157e+308]},"properties":{"OBJECTID":64,"Nama":"SMK Taruna Terpadu 1","Alamat":"Jl. Salabenda Raya Blk. Telkom · (0251) 7542504","Full_Addre":"SMK Taruna Terpadu 1 Jl. Salabenda Raya Blk. Telkom · (0251) 7542504","Latitude":-6.523737,"Longitude":106.7593476}},
{"type":"Feature","geometry":{"type":"Point","coordinates":[106.73195330000004,-6.501784999999927,0,-1.7976931348623157e+308]},"properties":{"OBJECTID":65,"Nama":"Pesantren Tahfidz Al Hikmah","Alamat":"FPXJ+7QP, Kampung Kramat · 0896-7021-0324","Full_Addre":"Pesantren Tahfidz Al Hikmah FPXJ+7QP, Kampung Kramat · 0896-7021-0324","Latitude":-6.501785,"Longitude":106.7319533}},
{"type":"Feature","geometry":{"type":"Point","coordinates":[106.73620280000006,-6.4857871999999475,0,-1.7976931348623157e+308]},"properties":{"OBJECTID":66,"Nama":"Pesantren hurriyatul amin","Alamat":"Jln. Gg masjid Rt 05 Rw 06 no 44 desa jampang kec. Kemang kab. Bogor kode pos · 0853-1476-9838","Full_Addre":"Pesantren hurriyatul amin Jln. Gg masjid Rt 05 Rw 06 no 44 desa jampang kec. Kemang kab. Bogor kode pos · 0853-1476-9838","Latitude":-6.4857872,"Longitude":106.7362028}},
{"type":"Feature","geometry":{"type":"Point","coordinates":[106.71358830000008,-6.498419699999943,0,-1.7976931348623157e+308]},"properties":{"OBJECTID":67,"Nama":"Pondok Pesantren Tajul Alawiyyin","Alamat":"Kabupaten Bogor, Jawa Barat","Full_Addre":"Pondok Pesantren Tajul Alawiyyin Kabupaten Bogor, Jawa Barat","Latitude":-6.4984197,"Longitude":106.7135883}},
{"type":"Feature","geometry":{"type":"Point","coordinates":[106.73002960000008,-6.490899099999979,0,-1.7976931348623157e+308]},"properties":{"OBJECTID":68,"Nama":"Sekolah Tinggi Ilmu Administrasi (STIA) Menarasiswa","Alamat":"Jl. Hambulu No. 24, Parung Hijau · (0251) 8616927","Full_Addre":"Sekolah Tinggi Ilmu Administrasi (STIA) Menarasiswa Jl. Hambulu No. 24, Parung Hijau · (0251) 8616927","Latitude":-6.4908991,"Longitude":106.7300296}},
{"type":"Feature","geometry":{"type":"Point","coordinates":[106.70328670000004,-6.482916599999953,0,-1.7976931348623157e+308]},"properties":{"OBJECTID":69,"Nama":"Seminari Menengah Stella Maris Bogor","Alamat":"GP83+R8M, Jl. Telaga Kahuripan","Full_Addre":"Seminari Menengah Stella Maris Bogor GP83+R8M, Jl. Telaga Kahuripan","Latitude":-6.4829166,"Longitude":106.7032867}},
{"type":"Feature","geometry":{"type":"Point","coordinates":[106.76091260000004,-6.5355908999999315,0,-1.7976931348623157e+308]},"properties":{"OBJECTID":70,"Nama":"Yayasan Arrahmah Addin","Alamat":"Jalan Salabenda Raya, timbangan kp. SetuSetu Jl. Raya Bojong No.RT.02/12","Full_Addre":"Yayasan Arrahmah Addin Jalan Salabenda Raya, timbangan kp. SetuSetu Jl. Raya Bojong No.RT.02/12","Latitude":-6.5355909,"Longitude":106.7609126}},
{"type":"Feature","geometry":{"type":"Point","coordinates":[106.73084840000007,-6.481926899999962,0,-1.7976931348623157e+308]},"properties":{"OBJECTID":71,"Nama":"Pondok Pesantren Yama Yayasan Mukhtarul 'Adalah Bogor","Alamat":"Jln Raya Parung Bogor RT 01 RW 06 Kel. Jampang Kec. Kemang Kab. Bogor · 0822-9902-6222","Full_Addre":"Pondok Pesantren Yama Yayasan Mukhtarul 'Adalah Bogor Jln Raya Parung Bogor RT 01 RW 06 Kel. Jampang Kec. Kemang Kab. Bogor · 0822-9902-6222","Latitude":-6.4819269,"Longitude":106.7308484}},
{"type":"Feature","geometry":{"type":"Point","coordinates":[106.73069750000008,-6.490211399999964,0,-1.7976931348623157e+308]},"properties":{"OBJECTID":72,"Nama":"AL-WILDAN 8 PARUNG BOGOR","Alamat":"GP5J+R7J, Jl. Parung Hijau Desa Tegal Jampang Hambulu","Full_Addre":"AL-WILDAN 8 PARUNG BOGOR GP5J+R7J, Jl. Parung Hijau Desa Tegal Jampang Hambulu","Latitude":-6.4902114,"Longitude":106.7306975}},
{"type":"Feature","geometry":{"type":"Point","coordinates":[106.73374890000008,-6.491049999999973,0,-1.7976931348623157e+308]},"properties":{"OBJECTID":73,"Nama":"Pondok Pesantren Tahfizh BESQ Parung","Alamat":"GP5M+HFH","Full_Addre":"Pondok Pesantren Tahfizh BESQ Parung GP5M+HFH","Latitude":-6.49105,"Longitude":106.7337489}},
{"type":"Feature","geometry":{"type":"Point","coordinates":[106.71024260000007,-6.493291899999974,0,-1.7976931348623157e+308]},"properties":{"OBJECTID":74,"Nama":"Majlis Ta'lim Al - Istiqomah pimpinan Ust. Sanin sahroni","Alamat":"Jl. Katapang Andir · 0831-1245-7699","Full_Addre":"Majlis Ta'lim Al - Istiqomah pimpinan Ust. Sanin sahroni Jl. Katapang Andir · 0831-1245-7699","Latitude":-6.4932919,"Longitude":106.7102426}},
{"type":"Feature","geometry":{"type":"Point","coordinates":[106.75821930000006,-6.4941634999999565,0,-1.7976931348623157e+308]},"properties":{"OBJECTID":75,"Nama":"SMP PERMATA jalan baru - kemang","Alamat":"GQ45+87Q, Jl. Baru Kemang","Full_Addre":"SMP PERMATA jalan baru - kemang GQ45+87Q, Jl. Baru Kemang","Latitude":-6.4941635,"Longitude":106.7582193}},
{"type":"Feature","geometry":{"type":"Point","coordinates":[106.74354500000004,-6.492438499999935,0,-1.7976931348623157e+308]},"properties":{"OBJECTID":76,"Nama":"LPBA Al-Hikmah Bogor","Alamat":"Jalan Raya Parung-Bogor Km. 26 belakang SMP Djojoredjo · 0895-3398-11119","Full_Addre":"LPBA Al-Hikmah Bogor Jalan Raya Parung-Bogor Km. 26 belakang SMP Djojoredjo · 0895-3398-11119","Latitude":-6.4924385,"Longitude":106.743545}},
{"type":"Feature","geometry":{"type":"Point","coordinates":[106.72669430000008,-6.473175799999979,0,-1.7976931348623157e+308]},"properties":{"OBJECTID":77,"Nama":"SMK NUSA BANGSA JAMPANG - PARUNG","Alamat":"GPGG+PMG, Gg. SMK Nusa Bangsa","Full_Addre":"SMK NUSA BANGSA JAMPANG - PARUNG GPGG+PMG, Gg. SMK Nusa Bangsa","Latitude":-6.4731758,"Longitude":106.7266943}},
{"type":"Feature","geometry":{"type":"Point","coordinates":[106.73457700000006,-6.498448799999949,0,-1.7976931348623157e+308]},"properties":{"OBJECTID":78,"Nama":"SDN Pabuaran 01 Kemang","Alamat":"Kabupaten Bogor, Jawa Barat","Full_Addre":"SDN Pabuaran 01 Kemang Kabupaten Bogor, Jawa Barat","Latitude":-6.4984488,"Longitude":106.734577}},
{"type":"Feature","geometry":{"type":"Point","coordinates":[106.73657690000005,-6.4867459999999255,0,-1.7976931348623157e+308]},"properties":{"OBJECTID":79,"Nama":"YAYASAN PENDIDIKAN ISLAM NURUL ILMI KEMANG BOGOR","Alamat":"KP BABAKAN RT 002/004 DESA PONDO · 0812-8419-5739","Full_Addre":"YAYASAN PENDIDIKAN ISLAM NURUL ILMI KEMANG BOGOR KP BABAKAN RT 002/004 DESA PONDO · 0812-8419-5739","Latitude":-6.486746,"Longitude":106.7365769}},
{"type":"Feature","geometry":{"type":"Point","coordinates":[106.72954950000008,-6.473139799999956,0,-1.7976931348623157e+308]},"properties":{"OBJECTID":80,"Nama":"Toko Shanum (buku dan alat permainan edukatif anak usia dini)","Alamat":"Jl. Raya Parung - Bogor KM.42, Pintu Air No.1 · 0813-1887-4835","Full_Addre":"Toko Shanum (buku dan alat permainan edukatif anak usia dini) Jl. Raya Parung - Bogor KM.42, Pintu Air No.1 · 0813-1887-4835","Latitude":-6.4731398,"Longitude":106.7295495}},
{"type":"Feature","geometry":{"type":"Point","coordinates":[106.72982230000008,-6.489707599999974,0,-1.7976931348623157e+308]},"properties":{"OBJECTID":81,"Nama":"RA MUTIARA BUNDA","Alamat":"Jl. Parung Hijau Desa Tegal Jampang Hambulu No.2","Full_Addre":"RA MUTIARA BUNDA Jl. Parung Hijau Desa Tegal Jampang Hambulu No.2","Latitude":-6.4897076,"Longitude":106.7298223}},
{"type":"Feature","geometry":{"type":"Point","coordinates":[106.75047040000004,-6.504489199999966,0,-1.7976931348623157e+308]},"properties":{"OBJECTID":82,"Nama":"PAUD KARTINI KEC. KEMANG KAB. BOGOR","Alamat":"FQW2+655, Jl. Kemang Kiara DESA, RT.01/RW.03","Full_Addre":"PAUD KARTINI KEC. KEMANG KAB. BOGOR FQW2+655, Jl. Kemang Kiara DESA, RT.01/RW.03","Latitude":-6.5044892,"Longitude":106.7504704}},
{"type":"Feature","geometry":{"type":"Point","coordinates":[106.72177780000004,-6.469068799999945,0,-1.7976931348623157e+308]},"properties":{"OBJECTID":83,"Nama":"TK Ihsan","Alamat":"GPJC+9PC, setu, Jl. Raya Lengkong Barang","Full_Addre":"TK Ihsan GPJC+9PC, setu, Jl. Raya Lengkong Barang","Latitude":-6.4690688,"Longitude":106.7217778}},
{"type":"Feature","geometry":{"type":"Point","coordinates":[106.74794410000004,-6.50086349999998,0,-1.7976931348623157e+308]},"properties":{"OBJECTID":84,"Nama":"SMK Negeri 11 Kab. Bogor","Alamat":"Jl. Kemang Limus Manggung","Full_Addre":"SMK Negeri 11 Kab. Bogor Jl. Kemang Limus Manggung","Latitude":-6.5008635,"Longitude":106.7479441}},
{"type":"Feature","geometry":{"type":"Point","coordinates":[106.72381200000007,-6.468921899999941,0,-1.7976931348623157e+308]},"properties":{"OBJECTID":85,"Nama":"PPMKP SUMBER RIZKI","Alamat":"GPJF+CGM, Pulo","Full_Addre":"PPMKP SUMBER RIZKI GPJF+CGM, Pulo","Latitude":-6.4689219,"Longitude":106.723812}},
{"type":"Feature","geometry":{"type":"Point","coordinates":[106.71536970000005,-6.4961187999999765,0,-1.7976931348623157e+308]},"properties":{"OBJECTID":86,"Nama":"SAUNG KAMI IBNU HAJAR (PADEPOKAN REPOK PASUNDAN)","Alamat":"GP38+H45 · 0858-1480-0022","Full_Addre":"SAUNG KAMI IBNU HAJAR (PADEPOKAN REPOK PASUNDAN) GP38+H45 · 0858-1480-0022","Latitude":-6.4961188,"Longitude":106.7153697}},
{"type":"Feature","geometry":{"type":"Point","coordinates":[106.74813640000008,-6.530573299999958,0,-1.7976931348623157e+308]},"properties":{"OBJECTID":87,"Nama":"Sekolah Dasar Negri Bojong 1","Alamat":"Jl. Raya Bojong No.29-5","Full_Addre":"Sekolah Dasar Negri Bojong 1 Jl. Raya Bojong No.29-5","Latitude":-6.5305733,"Longitude":106.7481364}},
{"type":"Feature","geometry":{"type":"Point","coordinates":[106.72123170000003,-6.491200999999933,0,-1.7976931348623157e+308]},"properties":{"OBJECTID":88,"Nama":"Paud UBAN","Alamat":"Jl. Mede Organik, Bogor Kemang Residence, 16310","Full_Addre":"Paud UBAN Jl. Mede Organik, Bogor Kemang Residence, 16310","Latitude":-6.491201,"Longitude":106.7212317}},
{"type":"Feature","geometry":{"type":"Point","coordinates":[106.73626490000004,-6.488513699999942,0,-1.7976931348623157e+308]},"properties":{"OBJECTID":89,"Nama":"Lembaga Pendidikan Al Assrye","Alamat":"Jl. Raya Parung No.66 · (0251) 8618812","Full_Addre":"Lembaga Pendidikan Al Assrye Jl. Raya Parung No.66 · (0251) 8618812","Latitude":-6.4885137,"Longitude":106.7362649}},
{"type":"Feature","geometry":{"type":"Point","coordinates":[106.73895250000004,-6.49989439999996,0,-1.7976931348623157e+308]},"properties":{"OBJECTID":90,"Nama":"Paud Tunas Melati","Alamat":"GP2Q+2HW, Jl. Raya Pabuaran","Full_Addre":"Paud Tunas Melati GP2Q+2HW, Jl. Raya Pabuaran","Latitude":-6.4998944,"Longitude":106.7389525}},
{"type":"Feature","geometry":{"type":"Point","coordinates":[106.69666390000003,-6.475773599999968,0,-1.7976931348623157e+308]},"properties":{"OBJECTID":91,"Nama":"Jl.padepokan awi koneng","Alamat":"GMFW+MMV · 0857-1951-7051","Full_Addre":"Jl.padepokan awi koneng GMFW+MMV · 0857-1951-7051","Latitude":-6.4757736,"Longitude":106.6966639}},
{"type":"Feature","geometry":{"type":"Point","coordinates":[106.71253580000007,-6.4765762999999765,0,-1.7976931348623157e+308]},"properties":{"OBJECTID":92,"Nama":"Sekretariat PKBM YPGB","Alamat":"GPF7+927, Jl. Telaga Kahuripan","Full_Addre":"Sekretariat PKBM YPGB GPF7+927, Jl. Telaga Kahuripan","Latitude":-6.4765763,"Longitude":106.7125358}},
{"type":"Feature","geometry":{"type":"Point","coordinates":[106.74028820000007,-6.486782999999946,0,-1.7976931348623157e+308]},"properties":{"OBJECTID":93,"Nama":"PAUD SAKURA","Alamat":"Jl. Raya Bogor-Parung No.32","Full_Addre":"PAUD SAKURA Jl. Raya Bogor-Parung No.32","Latitude":-6.486783,"Longitude":106.7402882}},
{"type":"Feature","geometry":{"type":"Point","coordinates":[106.74133110000008,-6.498367799999926,0,-1.7976931348623157e+308]},"properties":{"OBJECTID":94,"Nama":"Pusbang Bogor Tak Akan Kulupa","Alamat":"GP2R+MG4, Unnamed Road","Full_Addre":"Pusbang Bogor Tak Akan Kulupa GP2R+MG4, Unnamed Road","Latitude":-6.4983678,"Longitude":106.7413311}},
{"type":"Feature","geometry":{"type":"Point","coordinates":[106.72965210000007,-6.488549899999953,0,-1.7976931348623157e+308]},"properties":{"OBJECTID":95,"Nama":"STM MENARA SISWA 12PH BOGOR","Alamat":"Jl. Parung Hijau Desa Tegal Jampang Hambulu No.18","Full_Addre":"STM MENARA SISWA 12PH BOGOR Jl. Parung Hijau Desa Tegal Jampang Hambulu No.18","Latitude":-6.4885499,"Longitude":106.7296521}},
{"type":"Feature","geometry":{"type":"Point","coordinates":[106.73178880000006,-6.483166199999971,0,-1.7976931348623157e+308]},"properties":{"OBJECTID":96,"Nama":"Paud Al Lu'Lu","Alamat":"GP8J+PPM, Jl. Raya Bogor-Parung · 0857-1072-2399","Full_Addre":"Paud Al Lu'Lu GP8J+PPM, Jl. Raya Bogor-Parung · 0857-1072-2399","Latitude":-6.4831662,"Longitude":106.7317888}},
{"type":"Feature","geometry":{"type":"Point","coordinates":[106.76289090000006,-6.519730299999935,0,-1.7976931348623157e+308]},"properties":{"OBJECTID":97,"Nama":"Paud Bintang Bintang","Alamat":"FQJ7+452, Jl. Perumahan Pandan Asri","Full_Addre":"Paud Bintang Bintang FQJ7+452, Jl. Perumahan Pandan Asri","Latitude":-6.5197303,"Longitude":106.7628909}},
{"type":"Feature","geometry":{"type":"Point","coordinates":[106.73053450000003,-6.48941039999994,0,-1.7976931348623157e+308]},"properties":{"OBJECTID":98,"Nama":"STNU JAKARTA PARUNG","Alamat":"GP6J+66M","Full_Addre":"STNU JAKARTA PARUNG GP6J+66M","Latitude":-6.4894104,"Longitude":106.7305345}},
{"type":"Feature","geometry":{"type":"Point","coordinates":[106.73615530000006,-6.489215399999978,0,-1.7976931348623157e+308]},"properties":{"OBJECTID":99,"Nama":"TEKNOS GENIUS PARUNG","Alamat":"GP6P+8F6 · 0813-4354-8778","Full_Addre":"TEKNOS GENIUS PARUNG GP6P+8F6 · 0813-4354-8778","Latitude":-6.4892154,"Longitude":106.7361553}},
{"type":"Feature","geometry":{"type":"Point","coordinates":[106.73012230000006,-6.476944099999969,0,-1.7976931348623157e+308]},"properties":{"OBJECTID":100,"Nama":"MDTA Nuurushshibyan","Alamat":"Kp. Kemang Rt 017 Rw 006 Desa Buniwangu Kecamata. Gegerbitung","Full_Addre":"MDTA Nuurushshibyan Kp. Kemang Rt 017 Rw 006 Desa Buniwangu Kecamata. Gegerbitung","Latitude":-6.4769441,"Longitude":106.7301223}},
{"type":"Feature","geometry":{"type":"Point","coordinates":[106.73768520000004,-6.491455999999971,0,-1.7976931348623157e+308]},"properties":{"OBJECTID":101,"Nama":"Ponpes Al-Mujahidin","Alamat":"GP5Q+C37, Gg. Pendopo","Full_Addre":"Ponpes Al-Mujahidin GP5Q+C37, Gg. Pendopo","Latitude":-6.491456,"Longitude":106.7376852}},
{"type":"Feature","geometry":{"type":"Point","coordinates":[106.73661000000004,-6.485689999999977,0,-1.7976931348623157e+308]},"properties":{"OBJECTID":102,"Nama":"SMK Menarasiswa 2 Bogor","Alamat":"GP7P+PJH","Full_Addre":"SMK Menarasiswa 2 Bogor GP7P+PJH","Latitude":-6.48569,"Longitude":106.73661}},
{"type":"Feature","geometry":{"type":"Point","coordinates":[106.74132440000005,-6.498805499999946,0,-1.7976931348623157e+308]},"properties":{"OBJECTID":103,"Nama":"Gedung griya kencana","Alamat":"GP2R+FGG, Unnamed Road","Full_Addre":"Gedung griya kencana GP2R+FGG, Unnamed Road","Latitude":-6.4988055,"Longitude":106.7413244}}
]}